<?xml version="1.0" encoding="UTF-8"?>
<kml xmlns="http://www.opengis.net/kml/2.2">
<Document>
<Placemark>
<name>Blk 84 Marine Parade Central</name>
<description>
<p><font color="red"><i></i>
<b>PostalCode - 440084</b>
</font></p>
<p><font color="Blue"><i></i>
<b>Discription - </b>
</font></p>
</description>
<Point>
<coordinates>103.906338270111,1.30228554138626</coordinates>
</Point>
</Placemark>
<Placemark>
<name>Sembawang Hill Food Centre</name>
<description>
<p><font color="red"><i></i>
<b>PostalCode - 574419</b>
</font></p>
<p><font color="Blue"><i></i>
<b>Discription - </b>
</font></p>
</description>
<Point>
<coordinates>103.828993888081,1.37238531133815</coordinates>
</Point>
</Placemark>
<Placemark>
<name>Blk 74 Toa Payoh Lorong 4</name>
<description>
<p><font color="red"><i></i>
<b>PostalCode - 310074</b>
</font></p>
<p><font color="Blue"><i></i>
<b>Discription - </b>
</font></p>
</description>
<Point>
<coordinates>103.851998861704,1.33454851637721</coordinates>
</Point>
</Placemark>
<Placemark>
<name>Blk 85 Bedok North Street 4</name>
<description>
<p><font color="red"><i></i>
<b>PostalCode - 460085</b>
</font></p>
<p><font color="Blue"><i></i>
<b>Discription - </b>
</font></p>
</description>
<Point>
<coordinates>103.938732258018,1.33198739833303</coordinates>
</Point>
</Placemark>
<Placemark>
<name>Adam Food Centre</name>
<description>
<p><font color="red"><i></i>
<b>PostalCode - 289876</b>
</font></p>
<p><font color="Blue"><i></i>
<b>Discription - </b>
</font></p>
</description>
<Point>
<coordinates>103.814181774222,1.32408304610709</coordinates>
</Point>
</Placemark>
<Placemark>
<name>Blk 505 Jurong West Street 52</name>
<description>
<p><font color="red"><i></i>
<b>PostalCode - 640505</b>
</font></p>
<p><font color="Blue"><i></i>
<b>Discription - </b>
</font></p>
</description>
<Point>
<coordinates>103.718447224655,1.34964263530166</coordinates>
</Point>
</Placemark>
<Placemark>
<name>Blk 538 Bedok North Street 3</name>
<description>
<p><font color="red"><i></i>
<b>PostalCode - 460538</b>
</font></p>
<p><font color="Blue"><i></i>
<b>Discription - </b>
</font></p>
</description>
<Point>
<coordinates>103.92484395779,1.33178164515641</coordinates>
</Point>
</Placemark>
<Placemark>
<name>Blk 58 New Upper Changi Road</name>
<description>
<p><font color="red"><i></i>
<b>PostalCode - 461058</b>
</font></p>
<p><font color="Blue"><i></i>
<b>Discription - </b>
</font></p>
</description>
<Point>
<coordinates>103.941132110289,1.32418822210199</coordinates>
</Point>
</Placemark>
<Placemark>
<name>Blk 6 Tanjong Pagar Plaza</name>
<description>
<p><font color="red"><i></i>
<b>PostalCode - 81006</b>
</font></p>
<p><font color="Blue"><i></i>
<b>Discription - </b>
</font></p>
</description>
<Point>
<coordinates>103.84316669924,1.27661498107699</coordinates>
</Point>
</Placemark>
<Placemark>
<name>Blk 630 Bedok Reservoir Road</name>
<description>
<p><font color="red"><i></i>
<b>PostalCode - 470630</b>
</font></p>
<p><font color="Blue"><i></i>
<b>Discription - </b>
</font></p>
</description>
<Point>
<coordinates>103.914158769948,1.33292212429453</coordinates>
</Point>
</Placemark>
<Placemark>
<name>Blk 724 Ang Mo Kio Ave 6</name>
<description>
<p><font color="red"><i></i>
<b>PostalCode - 560724</b>
</font></p>
<p><font color="Blue"><i></i>
<b>Discription - </b>
</font></p>
</description>
<Point>
<coordinates>103.846518960517,1.37219776241593</coordinates>
</Point>
</Placemark>
<Placemark>
<name>Blk 726 Clementi West Street 2</name>
<description>
<p><font color="red"><i></i>
<b>PostalCode - 120726</b>
</font></p>
<p><font color="Blue"><i></i>
<b>Discription - </b>
</font></p>
</description>
<Point>
<coordinates>103.764264170397,1.30378236660034</coordinates>
</Point>
</Placemark>
<Placemark>
<name>Blk 75 Toa Payoh Lorong 5</name>
<description>
<p><font color="red"><i></i>
<b>PostalCode - 310075</b>
</font></p>
<p><font color="Blue"><i></i>
<b>Discription - </b>
</font></p>
</description>
<Point>
<coordinates>103.852941257989,1.33603923358401</coordinates>
</Point>
</Placemark>
<Placemark>
<name>Blks 7979A Circuit Road</name>
<description>
<p><font color="red"><i></i>
<b>PostalCode - 370079</b>
</font></p>
<p><font color="Blue"><i></i>
<b>Discription - </b>
</font></p>
</description>
<Point>
<coordinates>103.885056251749,1.3265950913772</coordinates>
</Point>
</Placemark>
<Placemark>
<name>Blk 89 Circuit Road</name>
<description>
<p><font color="red"><i></i>
<b>PostalCode - 370089</b>
</font></p>
<p><font color="Blue"><i></i>
<b>Discription - </b>
</font></p>
</description>
<Point>
<coordinates>103.8854489727,1.32344567620286</coordinates>
</Point>
</Placemark>
<Placemark>
<name>Blk 93 Toa Payoh Lorong 4</name>
<description>
<p><font color="red"><i></i>
<b>PostalCode - 310093</b>
</font></p>
<p><font color="Blue"><i></i>
<b>Discription - </b>
</font></p>
</description>
<Point>
<coordinates>103.849513171371,1.33847510388278</coordinates>
</Point>
</Placemark>
<Placemark>
<name>Bukit Timah Market</name>
<description>
<p><font color="red"><i></i>
<b>PostalCode - 588215</b>
</font></p>
<p><font color="Blue"><i></i>
<b>Discription - </b>
</font></p>
</description>
<Point>
<coordinates>103.775994704324,1.33937630589332</coordinates>
</Point>
</Placemark>
<Placemark>
<name>Chinatown Market</name>
<description>
<p><font color="red"><i></i>
<b>PostalCode - 50335</b>
</font></p>
<p><font color="Blue"><i></i>
<b>Discription - </b>
</font></p>
</description>
<Point>
<coordinates>103.843177315311,1.28223554399973</coordinates>
</Point>
</Placemark>
<Placemark>
<name>Chomp Chomp Food Centre</name>
<description>
<p><font color="red"><i></i>
<b>PostalCode - 557269</b>
</font></p>
<p><font color="Blue"><i></i>
<b>Discription - </b>
</font></p>
</description>
<Point>
<coordinates>103.866535861668,1.36422892250982</coordinates>
</Point>
</Placemark>
<Placemark>
<name>Blk 527 Ang Mo Kio Ave 10</name>
<description>
<p><font color="red"><i></i>
<b>PostalCode - 560527</b>
</font></p>
<p><font color="Blue"><i></i>
<b>Discription - </b>
</font></p>
</description>
<Point>
<coordinates>103.854482546552,1.37277027416282</coordinates>
</Point>
</Placemark>
<Placemark>
<name>Blk 453A Ang Mo Kio Ave 10</name>
<description>
<p><font color="red"><i></i>
<b>PostalCode - 561453</b>
</font></p>
<p><font color="Blue"><i></i>
<b>Discription - </b>
</font></p>
</description>
<Point>
<coordinates>103.856351142723,1.36824087074694</coordinates>
</Point>
</Placemark>
<Placemark>
<name>Blk 4A Woodlands Centre Road</name>
<description>
<p><font color="red"><i></i>
<b>PostalCode - 731004</b>
</font></p>
<p><font color="Blue"><i></i>
<b>Discription - </b>
</font></p>
</description>
<Point>
<coordinates>103.770086381777,1.44054075185288</coordinates>
</Point>
</Placemark>
<Placemark>
<name>Blk 11 Telok Blangah Crescent</name>
<description>
<p><font color="red"><i></i>
<b>PostalCode - 90011</b>
</font></p>
<p><font color="Blue"><i></i>
<b>Discription - </b>
</font></p>
</description>
<Point>
<coordinates>103.818641376147,1.27736723022193</coordinates>
</Point>
</Placemark>
<Placemark>
<name>Blk 69 Geylang Bahru</name>
<description>
<p><font color="red"><i></i>
<b>PostalCode - 330069</b>
</font></p>
<p><font color="Blue"><i></i>
<b>Discription - </b>
</font></p>
</description>
<Point>
<coordinates>103.870045806084,1.32139980386399</coordinates>
</Point>
</Placemark>
<Placemark>
<name>Chong Pang Market  Food Centre</name>
<description>
<p><font color="red"><i></i>
<b>PostalCode - 760104</b>
</font></p>
<p><font color="Blue"><i></i>
<b>Discription - </b>
</font></p>
</description>
<Point>
<coordinates>103.828537346698,1.43144808404583</coordinates>
</Point>
</Placemark>
<Placemark>
<name>Blk 353 Clementi Ave 2</name>
<description>
<p><font color="red"><i></i>
<b>PostalCode - 120353</b>
</font></p>
<p><font color="Blue"><i></i>
<b>Discription - </b>
</font></p>
</description>
<Point>
<coordinates>103.770836373302,1.31437024667035</coordinates>
</Point>
</Placemark>
<Placemark>
<name>Commonwealth Crescent Market</name>
<description>
<p><font color="red"><i></i>
<b>PostalCode - 140116</b>
</font></p>
<p><font color="Blue"><i></i>
<b>Discription - </b>
</font></p>
</description>
<Point>
<coordinates>103.800029328635,1.3069740023314</coordinates>
</Point>
</Placemark>
<Placemark>
<name>Blks 1A 2A 3A Commonwealth Drive</name>
<description>
<p><font color="red"><i></i>
<b>PostalCode - 141001</b>
</font></p>
<p><font color="Blue"><i></i>
<b>Discription - </b>
</font></p>
</description>
<Point>
<coordinates>103.797875205202,1.29971363322803</coordinates>
</Point>
</Placemark>
<Placemark>
<name>Blk 7 Empress Road</name>
<description>
<p><font color="red"><i></i>
<b>PostalCode - 260007</b>
</font></p>
<p><font color="Blue"><i></i>
<b>Discription - </b>
</font></p>
</description>
<Point>
<coordinates>103.805636095716,1.31624607717957</coordinates>
</Point>
</Placemark>
<Placemark>
<name>Geylang Serai Market</name>
<description>
<p><font color="red"><i></i>
<b>PostalCode - 402001</b>
</font></p>
<p><font color="Blue"><i></i>
<b>Discription - </b>
</font></p>
</description>
<Point>
<coordinates>103.897977085992,1.31672548318968</coordinates>
</Point>
</Placemark>
<Placemark>
<name>Golden Mile Food Centre</name>
<description>
<p><font color="red"><i></i>
<b>PostalCode - 199583</b>
</font></p>
<p><font color="Blue"><i></i>
<b>Discription - </b>
</font></p>
</description>
<Point>
<coordinates>103.863882941816,1.30287587212132</coordinates>
</Point>
</Placemark>
<Placemark>
<name>Blks 1314 Haig Road</name>
<description>
<p><font color="red"><i></i>
<b>PostalCode - 430013</b>
</font></p>
<p><font color="Blue"><i></i>
<b>Discription - </b>
</font></p>
</description>
<Point>
<coordinates>103.895609219037,1.31514238295552</coordinates>
</Point>
</Placemark>
<Placemark>
<name>ABC Brickworks Market  Food Centre</name>
<description>
<p><font color="red"><i></i>
<b>PostalCode - 150006</b>
</font></p>
<p><font color="Blue"><i></i>
<b>Discription - </b>
</font></p>
</description>
<Point>
<coordinates>103.808127680358,1.28695308170689</coordinates>
</Point>
</Placemark>
<Placemark>
<name>Blks 221AB Boon Lay Place</name>
<description>
<p><font color="red"><i></i>
<b>PostalCode - 641221</b>
</font></p>
<p><font color="Blue"><i></i>
<b>Discription - </b>
</font></p>
</description>
<Point>
<coordinates>103.712799498114,1.34522355039479</coordinates>
</Point>
</Placemark>
<Placemark>
<name>Dunman Food Centre</name>
<description>
<p><font color="red"><i></i>
<b>PostalCode - 424768</b>
</font></p>
<p><font color="Blue"><i></i>
<b>Discription - </b>
</font></p>
</description>
<Point>
<coordinates>103.901824880381,1.30941459932387</coordinates>
</Point>
</Placemark>
<Placemark>
<name>Blks 22AB Havelock Road</name>
<description>
<p><font color="red"><i></i>
<b>PostalCode - 161022</b>
</font></p>
<p><font color="Blue"><i></i>
<b>Discription - </b>
</font></p>
</description>
<Point>
<coordinates>103.829634507365,1.28793178593006</coordinates>
</Point>
</Placemark>
<Placemark>
<name>Blk 44 Holland Drive</name>
<description>
<p><font color="red"><i></i>
<b>PostalCode - 270044</b>
</font></p>
<p><font color="Blue"><i></i>
<b>Discription - </b>
</font></p>
</description>
<Point>
<coordinates>103.792773443804,1.30811813312918</coordinates>
</Point>
</Placemark>
<Placemark>
<name>Albert Centre Market  Food Centre</name>
<description>
<p><font color="red"><i></i>
<b>PostalCode - 180270</b>
</font></p>
<p><font color="Blue"><i></i>
<b>Discription - </b>
</font></p>
</description>
<Point>
<coordinates>103.854121568898,1.30109213719207</coordinates>
</Point>
</Placemark>
<Placemark>
<name>Amoy Street Food Centre</name>
<description>
<p><font color="red"><i></i>
<b>PostalCode - 69111</b>
</font></p>
<p><font color="Blue"><i></i>
<b>Discription - </b>
</font></p>
</description>
<Point>
<coordinates>103.846650594905,1.27919664231022</coordinates>
</Point>
</Placemark>
<Placemark>
<name>Blk 628 Ang Mo Kio Ave 4</name>
<description>
<p><font color="red"><i></i>
<b>PostalCode - 560628</b>
</font></p>
<p><font color="Blue"><i></i>
<b>Discription - </b>
</font></p>
</description>
<Point>
<coordinates>103.840682048547,1.38102528143124</coordinates>
</Point>
</Placemark>
<Placemark>
<name>Blk 503 West Coast Drive</name>
<description>
<p><font color="red"><i></i>
<b>PostalCode - 120503</b>
</font></p>
<p><font color="Blue"><i></i>
<b>Discription - </b>
</font></p>
</description>
<Point>
<coordinates>103.759751080225,1.31180342296283</coordinates>
</Point>
</Placemark>
<Placemark>
<name>Blk 502 West Coast Drive</name>
<description>
<p><font color="red"><i></i>
<b>PostalCode - 120502</b>
</font></p>
<p><font color="Blue"><i></i>
<b>Discription - </b>
</font></p>
</description>
<Point>
<coordinates>103.759165815324,1.31189012865255</coordinates>
</Point>
</Placemark>
<Placemark>
<name>Bedok Food Centre</name>
<description>
<p><font color="red"><i></i>
<b>PostalCode - 469572</b>
</font></p>
<p><font color="Blue"><i></i>
<b>Discription - </b>
</font></p>
</description>
<Point>
<coordinates>103.95547154663,1.32035441571206</coordinates>
</Point>
</Placemark>
<Placemark>
<name>Beo Crescent Market</name>
<description>
<p><font color="red"><i></i>
<b>PostalCode - 169982</b>
</font></p>
<p><font color="Blue"><i></i>
<b>Discription - </b>
</font></p>
</description>
<Point>
<coordinates>103.827357700037,1.28882246523096</coordinates>
</Point>
</Placemark>
<Placemark>
<name>Berseh Food Centre</name>
<description>
<p><font color="red"><i></i>
<b>PostalCode - 208877</b>
</font></p>
<p><font color="Blue"><i></i>
<b>Discription - </b>
</font></p>
</description>
<Point>
<coordinates>103.85690797698,1.30738371622717</coordinates>
</Point>
</Placemark>
<Placemark>
<name>Blk 112 Jalan Bukit Merah</name>
<description>
<p><font color="red"><i></i>
<b>PostalCode - 160112</b>
</font></p>
<p><font color="Blue"><i></i>
<b>Discription - </b>
</font></p>
</description>
<Point>
<coordinates>103.826012956874,1.28000516160231</coordinates>
</Point>
</Placemark>
<Placemark>
<name>Blk 79 Telok Blangah Drive</name>
<description>
<p><font color="red"><i></i>
<b>PostalCode - 100079</b>
</font></p>
<p><font color="Blue"><i></i>
<b>Discription - </b>
</font></p>
</description>
<Point>
<coordinates>103.807627825693,1.27326507059173</coordinates>
</Point>
</Placemark>
<Placemark>
<name>Blk 117 Aljunied Ave 2</name>
<description>
<p><font color="red"><i></i>
<b>PostalCode - 380117</b>
</font></p>
<p><font color="Blue"><i></i>
<b>Discription - </b>
</font></p>
</description>
<Point>
<coordinates>103.887018746698,1.32064869712756</coordinates>
</Point>
</Placemark>
<Placemark>
<name>Blk 115 Bukit Merah View</name>
<description>
<p><font color="red"><i></i>
<b>PostalCode - 151115</b>
</font></p>
<p><font color="Blue"><i></i>
<b>Discription - </b>
</font></p>
</description>
<Point>
<coordinates>103.822040706804,1.2844306513675</coordinates>
</Point>
</Placemark>
<Placemark>
<name>Alexandra Village Food Centre</name>
<description>
<p><font color="red"><i></i>
<b>PostalCode - 150120</b>
</font></p>
<p><font color="Blue"><i></i>
<b>Discription - </b>
</font></p>
</description>
<Point>
<coordinates>103.804517641538,1.28602017377824</coordinates>
</Point>
</Placemark>
<Placemark>
<name>Blk 16 Bedok South Road</name>
<description>
<p><font color="red"><i></i>
<b>PostalCode - 460016</b>
</font></p>
<p><font color="Blue"><i></i>
<b>Discription - </b>
</font></p>
</description>
<Point>
<coordinates>103.935538847497,1.32055255240158</coordinates>
</Point>
</Placemark>
<Placemark>
<name>Blk 163 Bukit Merah Central</name>
<description>
<p><font color="red"><i></i>
<b>PostalCode - 150163</b>
</font></p>
<p><font color="Blue"><i></i>
<b>Discription - </b>
</font></p>
</description>
<Point>
<coordinates>103.816992081219,1.28369297145155</coordinates>
</Point>
</Placemark>
<Placemark>
<name>Blk 17 Upper Boon Keng Road</name>
<description>
<p><font color="red"><i></i>
<b>PostalCode - 380017</b>
</font></p>
<p><font color="Blue"><i></i>
<b>Discription - </b>
</font></p>
</description>
<Point>
<coordinates>103.871619996017,1.31502838938532</coordinates>
</Point>
</Placemark>
<Placemark>
<name>Blk 20 Ghim Moh Road</name>
<description>
<p><font color="red"><i></i>
<b>PostalCode - 270020</b>
</font></p>
<p><font color="Blue"><i></i>
<b>Discription - </b>
</font></p>
</description>
<Point>
<coordinates>103.788230384007,1.31099665800008</coordinates>
</Point>
</Placemark>
<Placemark>
<name>Blk 207 New Upper Changi Road</name>
<description>
<p><font color="red"><i></i>
<b>PostalCode - 460207</b>
</font></p>
<p><font color="Blue"><i></i>
<b>Discription - </b>
</font></p>
</description>
<Point>
<coordinates>103.930353091621,1.32529794236462</coordinates>
</Point>
</Placemark>
<Placemark>
<name>Blks 2021 Marsiling Lane</name>
<description>
<p><font color="red"><i></i>
<b>PostalCode - 730020</b>
</font></p>
<p><font color="Blue"><i></i>
<b>Discription - </b>
</font></p>
</description>
<Point>
<coordinates>103.776966885683,1.44340516332787</coordinates>
</Point>
</Placemark>
<Placemark>
<name>East Coast Lagoon Food Village</name>
<description>
<p><font color="red"><i></i>
<b>PostalCode - 468960</b>
</font></p>
<p><font color="Blue"><i></i>
<b>Discription - </b>
</font></p>
</description>
<Point>
<coordinates>103.935052048624,1.30702362626324</coordinates>
</Point>
</Placemark>
<Placemark>
<name>Blk 29 Bendemeer Road</name>
<description>
<p><font color="red"><i></i>
<b>PostalCode - 330029</b>
</font></p>
<p><font color="Blue"><i></i>
<b>Discription - </b>
</font></p>
</description>
<Point>
<coordinates>103.863021129565,1.31921742073335</coordinates>
</Point>
</Placemark>
<Placemark>
<name>Blk 210 Toa Payoh Lorong 8</name>
<description>
<p><font color="red"><i></i>
<b>PostalCode - 310210</b>
</font></p>
<p><font color="Blue"><i></i>
<b>Discription - </b>
</font></p>
</description>
<Point>
<coordinates>103.854333509506,1.34025242181042</coordinates>
</Point>
</Placemark>
<Placemark>
<name>Blk 216 Bedok North Street 1</name>
<description>
<p><font color="red"><i></i>
<b>PostalCode - 460216</b>
</font></p>
<p><font color="Blue"><i></i>
<b>Discription - </b>
</font></p>
</description>
<Point>
<coordinates>103.933221296795,1.32706278834234</coordinates>
</Point>
</Placemark>
<Placemark>
<name>Blk 448 Clementi Ave 3</name>
<description>
<p><font color="red"><i></i>
<b>PostalCode - 120448</b>
</font></p>
<p><font color="Blue"><i></i>
<b>Discription - </b>
</font></p>
</description>
<Point>
<coordinates>103.764510262632,1.31326527833921</coordinates>
</Point>
</Placemark>
<Placemark>
<name>Blk 4A Eunos Crescent</name>
<description>
<p><font color="red"><i></i>
<b>PostalCode - 402004</b>
</font></p>
<p><font color="Blue"><i></i>
<b>Discription - </b>
</font></p>
</description>
<Point>
<coordinates>103.904330865663,1.32034095639919</coordinates>
</Point>
</Placemark>
<Placemark>
<name>Blk 4A Jalan Batu</name>
<description>
<p><font color="red"><i></i>
<b>PostalCode - 432004</b>
</font></p>
<p><font color="Blue"><i></i>
<b>Discription - </b>
</font></p>
</description>
<Point>
<coordinates>103.883940332256,1.30241916495446</coordinates>
</Point>
</Placemark>
<Placemark>
<name>Blk 85 Redhill Lane</name>
<description>
<p><font color="red"><i></i>
<b>PostalCode - 150085</b>
</font></p>
<p><font color="Blue"><i></i>
<b>Discription - </b>
</font></p>
</description>
<Point>
<coordinates>103.818338641469,1.28733116910671</coordinates>
</Point>
</Placemark>
<Placemark>
<name>Blk 90 Whampoa Drive</name>
<description>
<p><font color="red"><i></i>
<b>PostalCode - 320090</b>
</font></p>
<p><font color="Blue"><i></i>
<b>Discription - </b>
</font></p>
</description>
<Point>
<coordinates>103.855137459351,1.32294346501129</coordinates>
</Point>
</Placemark>
<Placemark>
<name>Blk 22 Toa Payoh Lorong 7</name>
<description>
<p><font color="red"><i></i>
<b>PostalCode - 310022</b>
</font></p>
<p><font color="Blue"><i></i>
<b>Discription - </b>
</font></p>
</description>
<Point>
<coordinates>103.857003180698,1.33537809449884</coordinates>
</Point>
</Placemark>
<Placemark>
<name>Blk 226H Ang Mo Kio Street 22</name>
<description>
<p><font color="red"><i></i>
<b>PostalCode - 568226</b>
</font></p>
<p><font color="Blue"><i></i>
<b>Discription - </b>
</font></p>
</description>
<Point>
<coordinates>103.839952883823,1.36723054000929</coordinates>
</Point>
</Placemark>
<Placemark>
<name>Holland Village Market  Food Centre</name>
<description>
<p><font color="red"><i></i>
<b>PostalCode - 277700</b>
</font></p>
<p><font color="Blue"><i></i>
<b>Discription - </b>
</font></p>
</description>
<Point>
<coordinates>103.794833478044,1.31114929633811</coordinates>
</Point>
</Placemark>
<Placemark>
<name>Blk 105 Hougang Ave 1</name>
<description>
<p><font color="red"><i></i>
<b>PostalCode - 530105</b>
</font></p>
<p><font color="Blue"><i></i>
<b>Discription - </b>
</font></p>
</description>
<Point>
<coordinates>103.890080777456,1.35383779307578</coordinates>
</Point>
</Placemark>
<Placemark>
<name>Blk 1 Jalan Kukoh</name>
<description>
<p><font color="red"><i></i>
<b>PostalCode - 161001</b>
</font></p>
<p><font color="Blue"><i></i>
<b>Discription - </b>
</font></p>
</description>
<Point>
<coordinates>103.839939944116,1.28825242529487</coordinates>
</Point>
</Placemark>
<Placemark>
<name>Blk 511 Bedok North Street 3</name>
<description>
<p><font color="red"><i></i>
<b>PostalCode - 460511</b>
</font></p>
<p><font color="Blue"><i></i>
<b>Discription - </b>
</font></p>
</description>
<Point>
<coordinates>103.930601860573,1.33324669522237</coordinates>
</Point>
</Placemark>
<Placemark>
<name>Kallang Estate Market</name>
<description>
<p><font color="red"><i></i>
<b>PostalCode - 397972</b>
</font></p>
<p><font color="Blue"><i></i>
<b>Discription - </b>
</font></p>
</description>
<Point>
<coordinates>103.884129857177,1.3073965060947</coordinates>
</Point>
</Placemark>
<Placemark>
<name>Blk 226D Ang Mo Kio Ave 1</name>
<description>
<p><font color="red"><i></i>
<b>PostalCode - 564226</b>
</font></p>
<p><font color="Blue"><i></i>
<b>Discription - </b>
</font></p>
</description>
<Point>
<coordinates>103.839231027807,1.36678803283165</coordinates>
</Point>
</Placemark>
<Placemark>
<name>Market Street Food Centre</name>
<description>
<p><font color="red"><i></i>
<b>PostalCode - 48940</b>
</font></p>
<p><font color="Blue"><i></i>
<b>Discription - </b>
</font></p>
</description>
<Point>
<coordinates>103.850116120431,1.28423437836054</coordinates>
</Point>
</Placemark>
<Placemark>
<name>Maxwell Food Centre</name>
<description>
<p><font color="red"><i></i>
<b>PostalCode - 69184</b>
</font></p>
<p><font color="Blue"><i></i>
<b>Discription - </b>
</font></p>
</description>
<Point>
<coordinates>103.844753674493,1.28032356798862</coordinates>
</Point>
</Placemark>
<Placemark>
<name>Blk 159 Mei Chin Road</name>
<description>
<p><font color="red"><i></i>
<b>PostalCode - 140159</b>
</font></p>
<p><font color="Blue"><i></i>
<b>Discription - </b>
</font></p>
</description>
<Point>
<coordinates>103.802903614502,1.29323657594654</coordinates>
</Point>
</Placemark>
<Placemark>
<name>Blks 2  3 Changi Village Road</name>
<description>
<p><font color="red"><i></i>
<b>PostalCode - 500002</b>
</font></p>
<p><font color="Blue"><i></i>
<b>Discription - </b>
</font></p>
</description>
<Point>
<coordinates>103.988245466113,1.38915208201379</coordinates>
</Point>
</Placemark>
<Placemark>
<name>Hong Lim Market  Food Centre</name>
<description>
<p><font color="red"><i></i>
<b>PostalCode - 51531</b>
</font></p>
<p><font color="Blue"><i></i>
<b>Discription - NEA Food centre</b>
</font></p>
</description>
<Point>
<coordinates>103.845823959004,1.28529541121872</coordinates>
</Point>
</Placemark>
<Placemark>
<name>Newton Food Centre</name>
<description>
<p><font color="red"><i></i>
<b>PostalCode - 229495</b>
</font></p>
<p><font color="Blue"><i></i>
<b>Discription - </b>
</font></p>
</description>
<Point>
<coordinates>103.83950251198,1.31232019716402</coordinates>
</Point>
</Placemark>
<Placemark>
<name>North Bridge Road Market  Food Centre</name>
<description>
<p><font color="red"><i></i>
<b>PostalCode - 198783</b>
</font></p>
<p><font color="Blue"><i></i>
<b>Discription - </b>
</font></p>
</description>
<Point>
<coordinates>103.863909011376,1.30563466870253</coordinates>
</Point>
</Placemark>
<Placemark>
<name>Pasir Panjang Food Centre</name>
<description>
<p><font color="red"><i></i>
<b>PostalCode - 118543</b>
</font></p>
<p><font color="Blue"><i></i>
<b>Discription - </b>
</font></p>
</description>
<Point>
<coordinates>103.791402394604,1.27590788858641</coordinates>
</Point>
</Placemark>
<Placemark>
<name>Pek Kio Market  Food Centre</name>
<description>
<p><font color="red"><i></i>
<b>PostalCode - 211041</b>
</font></p>
<p><font color="Blue"><i></i>
<b>Discription - </b>
</font></p>
</description>
<Point>
<coordinates>103.850224802512,1.31616031852461</coordinates>
</Point>
</Placemark>
<Placemark>
<name>Peoples Park Food Centre</name>
<description>
<p><font color="red"><i></i>
<b>PostalCode - 50032</b>
</font></p>
<p><font color="Blue"><i></i>
<b>Discription - </b>
</font></p>
</description>
<Point>
<coordinates>103.842578446427,1.28499139120429</coordinates>
</Point>
</Placemark>
<Placemark>
<name>Kovan Market  Food Centre</name>
<description>
<p><font color="red"><i></i>
<b>PostalCode - 530209</b>
</font></p>
<p><font color="Blue"><i></i>
<b>Discription - </b>
</font></p>
</description>
<Point>
<coordinates>103.885977365348,1.35911980338937</coordinates>
</Point>
</Placemark>
<Placemark>
<name>Serangoon Garden Market</name>
<description>
<p><font color="red"><i></i>
<b>PostalCode - 555945</b>
</font></p>
<p><font color="Blue"><i></i>
<b>Discription - </b>
</font></p>
</description>
<Point>
<coordinates>103.866577901342,1.36299644447164</coordinates>
</Point>
</Placemark>
<Placemark>
<name>Blk 320 Shunfu Road</name>
<description>
<p><font color="red"><i></i>
<b>PostalCode - 570320</b>
</font></p>
<p><font color="Blue"><i></i>
<b>Discription - </b>
</font></p>
</description>
<Point>
<coordinates>103.837031537882,1.35200778707451</coordinates>
</Point>
</Placemark>
<Placemark>
<name>Blk 49 Sims Place</name>
<description>
<p><font color="red"><i></i>
<b>PostalCode - 380049</b>
</font></p>
<p><font color="Blue"><i></i>
<b>Discription - </b>
</font></p>
</description>
<Point>
<coordinates>103.879416714419,1.3170837251213</coordinates>
</Point>
</Placemark>
<Placemark>
<name>Taman Jurong Market  Food Centre</name>
<description>
<p><font color="red"><i></i>
<b>PostalCode - 618499</b>
</font></p>
<p><font color="Blue"><i></i>
<b>Discription - </b>
</font></p>
</description>
<Point>
<coordinates>103.721519591889,1.33458972088195</coordinates>
</Point>
</Placemark>
<Placemark>
<name>Tanglin Halt Market</name>
<description>
<p><font color="red"><i></i>
<b>PostalCode - 142048</b>
</font></p>
<p><font color="Blue"><i></i>
<b>Discription - </b>
</font></p>
</description>
<Point>
<coordinates>103.797625436878,1.30078967165658</coordinates>
</Point>
</Placemark>
<Placemark>
<name>Blk 37A Teban Gardens Road</name>
<description>
<p><font color="red"><i></i>
<b>PostalCode - 601037</b>
</font></p>
<p><font color="Blue"><i></i>
<b>Discription - </b>
</font></p>
</description>
<Point>
<coordinates>103.74289133077,1.32084869279547</coordinates>
</Point>
</Placemark>
<Placemark>
<name>Blk 341 Ang Mo Kio Ave 1</name>
<description>
<p><font color="red"><i></i>
<b>PostalCode - 560341</b>
</font></p>
<p><font color="Blue"><i></i>
<b>Discription - </b>
</font></p>
</description>
<Point>
<coordinates>103.848253900585,1.36410555403744</coordinates>
</Point>
</Placemark>
<Placemark>
<name>Blk 409 Ang Mo Kio Ave 10</name>
<description>
<p><font color="red"><i></i>
<b>PostalCode - 560409</b>
</font></p>
<p><font color="Blue"><i></i>
<b>Discription - </b>
</font></p>
</description>
<Point>
<coordinates>103.855369476484,1.36276934244794</coordinates>
</Point>
</Placemark>
<Placemark>
<name>Tekka Market</name>
<description>
<p><font color="red"><i></i>
<b>PostalCode - 210665</b>
</font></p>
<p><font color="Blue"><i></i>
<b>Discription - </b>
</font></p>
</description>
<Point>
<coordinates>103.850610987778,1.30617738685385</coordinates>
</Point>
</Placemark>
<Placemark>
<name>Blk 82 Telok Blangah Drive</name>
<description>
<p><font color="red"><i></i>
<b>PostalCode - 100082</b>
</font></p>
<p><font color="Blue"><i></i>
<b>Discription - </b>
</font></p>
</description>
<Point>
<coordinates>103.807947066962,1.27385003869822</coordinates>
</Point>
</Placemark>
<Placemark>
<name>Blk 36 Telok Blangah Rise</name>
<description>
<p><font color="red"><i></i>
<b>PostalCode - 90036</b>
</font></p>
<p><font color="Blue"><i></i>
<b>Discription - </b>
</font></p>
</description>
<Point>
<coordinates>103.822043432771,1.27254583372991</coordinates>
</Point>
</Placemark>
<Placemark>
<name>Tiong Bahru Market</name>
<description>
<p><font color="red"><i></i>
<b>PostalCode - 168898</b>
</font></p>
<p><font color="Blue"><i></i>
<b>Discription - </b>
</font></p>
</description>
<Point>
<coordinates>103.832348487044,1.28508862526889</coordinates>
</Point>
</Placemark>
<Placemark>
<name>Blk 127 Toa Payoh Lorong 1</name>
<description>
<p><font color="red"><i></i>
<b>PostalCode - 310127</b>
</font></p>
<p><font color="Blue"><i></i>
<b>Discription - </b>
</font></p>
</description>
<Point>
<coordinates>103.844731364108,1.33809310024025</coordinates>
</Point>
</Placemark>
<Placemark>
<name>Blks 160162 Ang Mo Kio Ave 4</name>
<description>
<p><font color="red"><i></i>
<b>PostalCode - 560160</b>
</font></p>
<p><font color="Blue"><i></i>
<b>Discription - </b>
</font></p>
</description>
<Point>
<coordinates>103.83921405465,1.3744895122315</coordinates>
</Point>
</Placemark>
<Placemark>
<name>Blk 137 Tampines Street 11</name>
<description>
<p><font color="red"><i></i>
<b>PostalCode - 521137</b>
</font></p>
<p><font color="Blue"><i></i>
<b>Discription - </b>
</font></p>
</description>
<Point>
<coordinates>103.944624215226,1.34563988419696</coordinates>
</Point>
</Placemark>
<Placemark>
<name>Blk 79 Redhill Lane</name>
<description>
<p><font color="red"><i></i>
<b>PostalCode - 150079</b>
</font></p>
<p><font color="Blue"><i></i>
<b>Discription - </b>
</font></p>
</description>
<Point>
<coordinates>103.818349467666,1.28784736073708</coordinates>
</Point>
</Placemark>
<Placemark>
<name>Blk 347 Jurong East Ave 1</name>
<description>
<p><font color="red"><i></i>
<b>PostalCode - 600347</b>
</font></p>
<p><font color="Blue"><i></i>
<b>Discription - </b>
</font></p>
</description>
<Point>
<coordinates>103.731449160482,1.34522277964403</coordinates>
</Point>
</Placemark>
<Placemark>
<name>Blks 9192 Whampoa Drive</name>
<description>
<p><font color="red"><i></i>
<b>PostalCode - 320091</b>
</font></p>
<p><font color="Blue"><i></i>
<b>Discription - </b>
</font></p>
</description>
<Point>
<coordinates>103.854200971385,1.32329998086514</coordinates>
</Point>
</Placemark>
<Placemark>
<name>Blk 254 Jurong East Street 24</name>
<description>
<p><font color="red"><i></i>
<b>PostalCode - 600254</b>
</font></p>
<p><font color="Blue"><i></i>
<b>Discription - </b>
</font></p>
</description>
<Point>
<coordinates>103.737780932281,1.34344255243732</coordinates>
</Point>
</Placemark>
<Placemark>
<name>Zion Riverside Food Centre</name>
<description>
<p><font color="red"><i></i>
<b>PostalCode - 247792</b>
</font></p>
<p><font color="Blue"><i></i>
<b>Discription - </b>
</font></p>
</description>
<Point>
<coordinates>103.8311889783,1.29234256421983</coordinates>
</Point>
</Placemark>
<Placemark>
<name>Blk 50A Marine Terrace</name>
<description>
<p><font color="red"><i></i>
<b>PostalCode - 441050</b>
</font></p>
<p><font color="Blue"><i></i>
<b>Discription - </b>
</font></p>
</description>
<Point>
<coordinates>103.915761667555,1.30577553630975</coordinates>
</Point>
</Placemark>
<Placemark>
<name>Blk 51 Old Airport Road</name>
<description>
<p><font color="red"><i></i>
<b>PostalCode - 390051</b>
</font></p>
<p><font color="Blue"><i></i>
<b>Discription - </b>
</font></p>
</description>
<Point>
<coordinates>103.885832970662,1.30825190909156</coordinates>
</Point>
</Placemark>
<Placemark>
<name>Blk 80 Circuit Road</name>
<description>
<p><font color="red"><i></i>
<b>PostalCode - 370080</b>
</font></p>
<p><font color="Blue"><i></i>
<b>Discription - </b>
</font></p>
</description>
<Point>
<coordinates>103.887128256624,1.32784994540265</coordinates>
</Point>
</Placemark>
</Document>
</kml>
